[
    { "name": "Nueva York", "lng": -74.006, "lat": 40.7128 },
    { "name": "Los Ángeles", "lng": -118.2437, "lat": 34.0522 },
    { "name": "Chicago", "lng": -87.6298, "lat": 41.8781 },
    { "name": "Miami", "lng": -80.1918, "lat": 25.7617 },
    { "name": "Buenos Aires", "lng": -58.3816, "lat": -34.6037 },
    { "name": "Río de Janeiro", "lng": -43.1729, "lat": -22.9068 },
    { "name": "Sao Paulo", "lng": -46.6333, "lat": -23.5505 },
    { "name": "Lima", "lng": -77.0428, "lat": -12.0464 },
    { "name": "Toronto", "lng": -79.3832, "lat": 43.65107 },
    { "name": "Ciudad de México", "lng": -99.1332, "lat": 19.4326 },
    { "name": "Bogotá", "lng": -74.0721, "lat": 4.711 },
    { "name": "Santiago", "lng": -70.6483, "lat": -33.4569 },
    { "name": "Montevideo", "lng": -56.1645, "lat": -34.9011 },

    { "name": "Londres", "lng": -0.1276, "lat": 51.5074 },
    { "name": "París", "lng": 2.3522, "lat": 48.8566 },
    { "name": "Madrid", "lng": -3.7038, "lat": 40.4168 },
    { "name": "Roma", "lng": 12.4964, "lat": 41.9028 },
    { "name": "Berlín", "lng": 13.405, "lat": 52.52 },
    { "name": "Ámsterdam", "lng": 4.9041, "lat": 52.3676 },
    { "name": "Moscú", "lng": 37.6173, "lat": 55.7558 },
    { "name": "Atenas", "lng": 23.7275, "lat": 37.9838 },
    { "name": "Estambul", "lng": 28.9784, "lat": 41.0082 },
    { "name": "Viena", "lng": 16.3738, "lat": 48.2082 },
    { "name": "Lisboa", "lng": -9.1399, "lat": 38.7169 },

    { "name": "Tokio", "lng": 139.6917, "lat": 35.6895 },
    { "name": "Osaka", "lng": 135.5022, "lat": 34.6937 },
    { "name": "Pekín", "lng": 116.4074, "lat": 39.9042 },
    { "name": "Shanghái", "lng": 121.4737, "lat": 31.2304 },
    { "name": "Seúl", "lng": 126.978, "lat": 37.5665 },
    { "name": "Bangkok", "lng": 100.5018, "lat": 13.7563 },
    { "name": "Dubái", "lng": 55.2708, "lat": 25.2048 },
    { "name": "Singapur", "lng": 103.8198, "lat": 1.3521 },
    { "name": "Nueva Delhi", "lng": 77.1025, "lat": 28.7041 },
    { "name": "Hong Kong", "lng": 114.1694, "lat": 22.3193 },

    { "name": "El Cairo", "lng": 31.2357, "lat": 30.0444 },
    { "name": "Nairobi", "lng": 36.8219, "lat": -1.2864 },
    { "name": "Ciudad del Cabo", "lng": 18.4241, "lat": -33.9249 },
    { "name": "Lagos", "lng": 3.3792, "lat": 6.5244 },
    { "name": "Johannesburgo", "lng": 28.0473, "lat": -26.2041 },

    { "name": "Sídney", "lng": 151.2093, "lat": -33.8688 },
    { "name": "Melbourne", "lng": 144.9631, "lat": -37.8136 },
    { "name": "Auckland", "lng": 174.7633, "lat": -36.8485 },
    { "name": "Honolulu", "lng": -157.8583, "lat": 21.3069 }
]